{
    "html_attributions": [],
    "next_page_token": "CrQCJgEAAKxBtna8b6uyvI9nRGOblGwhEdgg9stS8aBXKdPDL1Sfj3takwFbBzbx4K9yTihYaqVg_dE8DGoN2UHRcEiQd3UrcQd0tpcIZlBkXhYtjRCatbjkZ4fHg5EwTUSCiDYpgDSM4MV77gAC6q3Ulr3XqB3zFD44xonGCH-qDyo6l40FjsdOIbV4gxgfwiFEL3Eg-jAr9nXyJvSVxz6VqKER2WQs2orPif_rq8gXsvIekOZ4FLYJmIqikePSSe2lvuUhiPiMKFTaf7m8h471FgO5vXaUqlZ18YzvRTHzP9Vwu8n24trgbgRuVy8G1Hd1_9BtoGNhPNDcay-PmXVnsCg_lodllrhDwTtLBt_wOlG5Ps1lGOymz_EDFlonLc37VUHcfEualQHf31cUzfiCFxlcxb4SEA1itrhA8E3dzdVCoVXCtxUaFKEqNPL9OxFJ-ctYQuqUUINB-Few",
    "results": [
        {
            "business_status": "OPERATIONAL",
            "formatted_address": "中国北京市大兴区南中轴路",
            "geometry": {
                "location": {
                    "lat": 39.75631,
                    "lng": 116.401549
                },
                "viewport": {
                    "northeast": {
                        "lat": 39.75766007989272,
                        "lng": 116.4029610298927
                    },
                    "southwest": {
                        "lat": 39.75496042010727,
                        "lng": 116.4002613701073
                    }
                }
            },
            "icon": "https://maps.gstatic.com/mapfiles/place_api/icons/generic_business-71.png",
            "id": "c63cbe31105986aad6125005a06ec742ee425b49",
            "name": "空气压缩机",
            "place_id": "ChIJy3bttMBK8DURGV7ikSZopEY",
            "plus_code": {
                "compound_code": "QC42+GJ 大兴区 中国北京市",
                "global_code": "8PFRQC42+GJ"
            },
            "rating": 0,
            "reference": "ChIJy3bttMBK8DURGV7ikSZopEY",
            "types": [
                "point_of_interest",
                "establishment"
            ],
            "user_ratings_total": 0
        },
        {
            "business_status": "OPERATIONAL",
            "formatted_address": "中国北京市海淀区北四环西路88-3号",
            "geometry": {
                "location": {
                    "lat": 39.972981,
                    "lng": 116.2828
                },
                "viewport": {
                    "northeast": {
                        "lat": 39.97434062989272,
                        "lng": 116.2841423798927
                    },
                    "southwest": {
                        "lat": 39.97164097010728,
                        "lng": 116.2814427201073
                    }
                }
            },
            "icon": "https://maps.gstatic.com/mapfiles/place_api/icons/generic_business-71.png",
            "id": "82aa80c8c8f20e0aba547c48f474c074eeab9a19",
            "name": "复盛牌空气压缩机",
            "place_id": "ChIJ1cpzxR5R8DURTBUtHUDmub8",
            "plus_code": {
                "compound_code": "X7FM+54 海淀区 中国北京市",
                "global_code": "8PFRX7FM+54"
            },
            "rating": 0,
            "reference": "ChIJ1cpzxR5R8DURTBUtHUDmub8",
            "types": [
                "point_of_interest",
                "establishment"
            ],
            "user_ratings_total": 0
        },
        {
            "business_status": "OPERATIONAL",
            "formatted_address": "中国北京市丰台区东铁营宋庄路6号",
            "geometry": {
                "location": {
                    "lat": 39.855521,
                    "lng": 116.430489
                },
                "viewport": {
                    "northeast": {
                        "lat": 39.85695667989272,
                        "lng": 116.4318398298928
                    },
                    "southwest": {
                        "lat": 39.85425702010727,
                        "lng": 116.4291401701073
                    }
                }
            },
            "icon": "https://maps.gstatic.com/mapfiles/place_api/icons/generic_business-71.png",
            "id": "96b2dd62c63164ba2097943c0dc5796e7a6c393d",
            "name": "腾程空气压缩机维修中心",
            "place_id": "ChIJAfbaj8-y8TURfFof4VOqr_4",
            "plus_code": {
                "compound_code": "VC4J+65 丰台区 中国北京市",
                "global_code": "8PFRVC4J+65"
            },
            "rating": 0,
            "reference": "ChIJAfbaj8-y8TURfFof4VOqr_4",
            "types": [
                "point_of_interest",
                "establishment"
            ],
            "user_ratings_total": 0
        },
        {
            "business_status": "OPERATIONAL",
            "formatted_address": "中国北京市朝阳区化工路路口东侧甲6号",
            "geometry": {
                "location": {
                    "lat": 39.87471900000001,
                    "lng": 116.506878
                },
                "viewport": {
                    "northeast": {
                        "lat": 39.87621357989273,
                        "lng": 116.5082388298927
                    },
                    "southwest": {
                        "lat": 39.87351392010728,
                        "lng": 116.5055391701073
                    }
                }
            },
            "icon": "https://maps.gstatic.com/mapfiles/place_api/icons/generic_business-71.png",
            "id": "fa60471fd517e0aa75febc5447c42a6e625f8a28",
            "name": "北京钻石空气压缩机销售中心",
            "place_id": "ChIJS-oVluSt8TURahLMg-I4BSc",
            "plus_code": {
                "compound_code": "VGF4+VQ 朝阳区 中国北京市",
                "global_code": "8PFRVGF4+VQ"
            },
            "rating": 0,
            "reference": "ChIJS-oVluSt8TURahLMg-I4BSc",
            "types": [
                "point_of_interest",
                "establishment"
            ],
            "user_ratings_total": 0
        },
        {
            "business_status": "OPERATIONAL",
            "formatted_address": "中国北京市朝阳区大羊坊路",
            "geometry": {
                "location": {
                    "lat": 39.83383,
                    "lng": 116.499615
                },
                "viewport": {
                    "northeast": {
                        "lat": 39.83520182989272,
                        "lng": 116.5009996798927
                    },
                    "southwest": {
                        "lat": 39.83250217010728,
                        "lng": 116.4983000201073
                    }
                }
            },
            "icon": "https://maps.gstatic.com/mapfiles/place_api/icons/shopping-71.png",
            "id": "0371646e068859c4dfbfa9f0e10e88525fb1d92f",
            "name": "市建华空气压缩机配件门市部",
            "place_id": "ChIJky0LpTGy8TURcvtOroi8om0",
            "plus_code": {
                "compound_code": "RFMX+GR 朝阳区 中国北京市",
                "global_code": "8PFRRFMX+GR"
            },
            "rating": 0,
            "reference": "ChIJky0LpTGy8TURcvtOroi8om0",
            "types": [
                "store",
                "point_of_interest",
                "establishment"
            ],
            "user_ratings_total": 0
        },
        {
            "business_status": "OPERATIONAL",
            "formatted_address": "中国北京市通州区周易北街",
            "geometry": {
                "location": {
                    "lat": 39.7343141,
                    "lng": 116.5818883
                },
                "viewport": {
                    "northeast": {
                        "lat": 39.73561867989272,
                        "lng": 116.5832388298927
                    },
                    "southwest": {
                        "lat": 39.73291902010727,
                        "lng": 116.5805391701073
                    }
                }
            },
            "icon": "https://maps.gstatic.com/mapfiles/place_api/icons/generic_business-71.png",
            "id": "6c45d8091a152beb36e691e1fd0804a95da50c81",
            "name": "丰电阿特拉斯空气压缩机维修部",
            "place_id": "ChIJV4sedwu38TURqYdU9asqC8A",
            "plus_code": {
                "compound_code": "PHMJ+PQ 通州区 中国北京市",
                "global_code": "8PFRPHMJ+PQ"
            },
            "rating": 0,
            "reference": "ChIJV4sedwu38TURqYdU9asqC8A",
            "types": [
                "point_of_interest",
                "establishment"
            ],
            "user_ratings_total": 0
        },
        {
            "business_status": "OPERATIONAL",
            "formatted_address": "中国北京市昌平区永安路",
            "geometry": {
                "location": {
                    "lat": 40.21046399999999,
                    "lng": 116.234175
                },
                "viewport": {
                    "northeast": {
                        "lat": 40.21181102989272,
                        "lng": 116.2354112298927
                    },
                    "southwest": {
                        "lat": 40.20911137010727,
                        "lng": 116.2327115701073
                    }
                }
            },
            "icon": "https://maps.gstatic.com/mapfiles/place_api/icons/shopping-71.png",
            "id": "e74f28e89317b707cda31c19b67da7f6df6819a7",
            "name": "北京远通复盛空气压缩机经销部",
            "place_id": "ChIJ6WPjWZz68DURjkodGZa9TG8",
            "plus_code": {
                "compound_code": "666M+5M 昌平区 中国北京市",
                "global_code": "8PGR666M+5M"
            },
            "rating": 0,
            "reference": "ChIJ6WPjWZz68DURjkodGZa9TG8",
            "types": [
                "point_of_interest",
                "establishment"
            ],
            "user_ratings_total": 0
        },
        {
            "business_status": "OPERATIONAL",
            "formatted_address": "中国北京市朝阳区成寿寺路308号",
            "geometry": {
                "location": {
                    "lat": 39.835089,
                    "lng": 116.44711
                },
                "viewport": {
                    "northeast": {
                        "lat": 39.83643887989272,
                        "lng": 116.4484486298928
                    },
                    "southwest": {
                        "lat": 39.83373922010728,
                        "lng": 116.4457489701073
                    }
                }
            },
            "icon": "https://maps.gstatic.com/mapfiles/place_api/icons/generic_business-71.png",
            "id": "113bd68731d589abd66c6bf8a227e7445f587e76",
            "name": "南川仪空压机成套设备经销中心",
            "place_id": "ChIJOasdNBmz8TURe_E-kG9Om9k",
            "plus_code": {
                "compound_code": "RCPW+2R 朝阳区 中国北京市",
                "global_code": "8PFRRCPW+2R"
            },
            "rating": 0,
            "reference": "ChIJOasdNBmz8TURe_E-kG9Om9k",
            "types": [
                "point_of_interest",
                "establishment"
            ],
            "user_ratings_total": 0
        },
        {
            "business_status": "OPERATIONAL",
            "formatted_address": "中国北京市海淀区北三环西路3号,蓟门桥西北角",
            "geometry": {
                "location": {
                    "lat": 39.968056,
                    "lng": 116.352239
                },
                "viewport": {
                    "northeast": {
                        "lat": 39.96937097989272,
                        "lng": 116.3535890298927
                    },
                    "southwest": {
                        "lat": 39.96667132010727,
                        "lng": 116.3508893701073
                    }
                }
            },
            "icon": "https://maps.gstatic.com/mapfiles/place_api/icons/shopping-71.png",
            "id": "befb7f5b15a0548cffaa3998ddf40ff5cf209f24",
            "name": "复盛牌空压缩机销售中心",
            "place_id": "ChIJ2_tacZJT8DUR5NaMnTolhwE",
            "plus_code": {
                "compound_code": "X992+6V 海淀区 中国北京市",
                "global_code": "8PFRX992+6V"
            },
            "rating": 0,
            "reference": "ChIJ2_tacZJT8DUR5NaMnTolhwE",
            "types": [
                "store",
                "point_of_interest",
                "establishment"
            ],
            "user_ratings_total": 0
        },
        {
            "business_status": "OPERATIONAL",
            "formatted_address": "中国北京市朝阳区成寿寺路185号",
            "geometry": {
                "location": {
                    "lat": 39.8372752,
                    "lng": 116.4466284
                },
                "viewport": {
                    "northeast": {
                        "lat": 39.83862782989272,
                        "lng": 116.4480998798927
                    },
                    "southwest": {
                        "lat": 39.83592817010727,
                        "lng": 116.4454002201072
                    }
                }
            },
            "icon": "https://maps.gstatic.com/mapfiles/place_api/icons/shopping-71.png",
            "id": "35c832f3c2812a003bdd5701d45ebc8b41bf92b1",
            "name": "捷豹牌空气压缩机",
            "place_id": "ChIJGUtI5R6z8TUR1uAS0eNT6WM",
            "plus_code": {
                "compound_code": "RCPW+WM 朝阳区 中国北京市",
                "global_code": "8PFRRCPW+WM"
            },
            "rating": 0,
            "reference": "ChIJGUtI5R6z8TUR1uAS0eNT6WM",
            "types": [
                "point_of_interest",
                "store",
                "establishment"
            ],
            "user_ratings_total": 0
        },
        {
            "business_status": "OPERATIONAL",
            "formatted_address": "中国北京市大兴区黄徐路",
            "geometry": {
                "location": {
                    "lat": 39.7071321,
                    "lng": 116.3503665
                },
                "viewport": {
                    "northeast": {
                        "lat": 39.70846547989272,
                        "lng": 116.3516617298927
                    },
                    "southwest": {
                        "lat": 39.70576582010727,
                        "lng": 116.3489620701073
                    }
                }
            },
            "icon": "https://maps.gstatic.com/mapfiles/place_api/icons/shopping-71.png",
            "id": "e3361c676274f1b752c2edce11fd51e9f0864f80",
            "name": "汉钟空气压缩机销售中心",
            "place_id": "ChIJMd0VW0o08DUR-hjGUFPL4tY",
            "plus_code": {
                "compound_code": "P942+V4 大兴区 中国北京市",
                "global_code": "8PFRP942+V4"
            },
            "rating": 0,
            "reference": "ChIJMd0VW0o08DUR-hjGUFPL4tY",
            "types": [
                "store",
                "point_of_interest",
                "establishment"
            ],
            "user_ratings_total": 0
        },
        {
            "business_status": "OPERATIONAL",
            "formatted_address": "中国北京市顺义区新华大街",
            "geometry": {
                "location": {
                    "lat": 40.174901,
                    "lng": 116.5
                },
                "viewport": {
                    "northeast": {
                        "lat": 40.17630347989272,
                        "lng": 116.5013454298927
                    },
                    "southwest": {
                        "lat": 40.17360382010727,
                        "lng": 116.4986457701073
                    }
                }
            },
            "icon": "https://maps.gstatic.com/mapfiles/place_api/icons/generic_business-71.png",
            "id": "ff0f295ae12a5e6d0938035534897874f101709e",
            "name": "泰大新世纪空调电器有限公司",
            "place_id": "ChIJBWv8RrIc8TURLMp0hjsEtXw",
            "plus_code": {
                "compound_code": "5GF2+X2 顺义区 中国北京市",
                "global_code": "8PGR5GF2+X2"
            },
            "rating": 0,
            "reference": "ChIJBWv8RrIc8TURLMp0hjsEtXw",
            "types": [
                "point_of_interest",
                "establishment"
            ],
            "user_ratings_total": 0
        },
        {
            "business_status": "OPERATIONAL",
            "formatted_address": "中国北京市海淀区复兴路83号",
            "geometry": {
                "location": {
                    "lat": 39.907777,
                    "lng": 116.256869
                },
                "viewport": {
                    "northeast": {
                        "lat": 39.90897742989272,
                        "lng": 116.2582187298927
                    },
                    "southwest": {
                        "lat": 39.90627777010727,
                        "lng": 116.2555190701073
                    }
                }
            },
            "icon": "https://maps.gstatic.com/mapfiles/place_api/icons/generic_business-71.png",
            "id": "f084f4956f05613ff951f7ed1e50278ccfd2996d",
            "name": "北京金腾达制冷空调服务",
            "place_id": "ChIJcxxFi_9N8DURHpOJ24QTGX0",
            "plus_code": {
                "compound_code": "W754+4P 海淀区 中国北京市",
                "global_code": "8PFRW754+4P"
            },
            "rating": 0,
            "reference": "ChIJcxxFi_9N8DURHpOJ24QTGX0",
            "types": [
                "point_of_interest",
                "establishment"
            ],
            "user_ratings_total": 0
        },
        {
            "business_status": "OPERATIONAL",
            "formatted_address": "中国北京市东城区广渠门南滨河路",
            "geometry": {
                "location": {
                    "lat": 39.885729,
                    "lng": 116.443715
                },
                "viewport": {
                    "northeast": {
                        "lat": 39.88700757989272,
                        "lng": 116.4450669298927
                    },
                    "southwest": {
                        "lat": 39.88430792010727,
                        "lng": 116.4423672701073
                    }
                }
            },
            "icon": "https://maps.gstatic.com/mapfiles/place_api/icons/generic_business-71.png",
            "id": "39033ec0b6c4db1ab71d5ead4361df805a21988d",
            "name": "京城环保",
            "place_id": "ChIJF6CLZWet8TURBRWlYoHOhy4",
            "plus_code": {
                "compound_code": "VCPV+7F 东城区 中国北京市",
                "global_code": "8PFRVCPV+7F"
            },
            "rating": 0,
            "reference": "ChIJF6CLZWet8TURBRWlYoHOhy4",
            "types": [
                "point_of_interest",
                "establishment"
            ],
            "user_ratings_total": 0
        },
        {
            "business_status": "OPERATIONAL",
            "formatted_address": "中国北京市丰台区宋家庄顺三条21号嘉业大厦二期1号楼503室",
            "geometry": {
                "location": {
                    "lat": 39.857745,
                    "lng": 116.427057
                },
                "viewport": {
                    "northeast": {
                        "lat": 39.85912887989272,
                        "lng": 116.4284046798928
                    },
                    "southwest": {
                        "lat": 39.85642922010728,
                        "lng": 116.4257050201073
                    }
                }
            },
            "icon": "https://maps.gstatic.com/mapfiles/place_api/icons/generic_business-71.png",
            "id": "6bf5514315760cadeaac1d04903bd5c817146538",
            "name": "北京和众德真空泵压缩机有限公司",
            "place_id": "ChIJxcnB7c6y8TUReNTEkegFbOI",
            "plus_code": {
                "compound_code": "VC5G+3R 丰台区 中国北京市",
                "global_code": "8PFRVC5G+3R"
            },
            "rating": 0,
            "reference": "ChIJxcnB7c6y8TUReNTEkegFbOI",
            "types": [
                "point_of_interest",
                "establishment"
            ],
            "user_ratings_total": 0
        },
        {
            "business_status": "OPERATIONAL",
            "formatted_address": "中国北京市通州区京塘路",
            "geometry": {
                "location": {
                    "lat": 39.7747247,
                    "lng": 116.8002018
                },
                "viewport": {
                    "northeast": {
                        "lat": 39.77606657989272,
                        "lng": 116.8015359298927
                    },
                    "southwest": {
                        "lat": 39.77336692010728,
                        "lng": 116.7988362701072
                    }
                }
            },
            "icon": "https://maps.gstatic.com/mapfiles/place_api/icons/shopping-71.png",
            "id": "a9a6fabdc1ad4dfefcf37c8969ab449e5c217358",
            "name": "北京胜源渤龙空气压缩机经销处",
            "place_id": "ChIJSxb3AuGX8TURS-k9xJI2gp8",
            "plus_code": {
                "compound_code": "QRF2+V3 通州区 中国北京市",
                "global_code": "8PFRQRF2+V3"
            },
            "rating": 0,
            "reference": "ChIJSxb3AuGX8TURS-k9xJI2gp8",
            "types": [
                "point_of_interest",
                "establishment"
            ],
            "user_ratings_total": 0
        },
        {
            "business_status": "OPERATIONAL",
            "formatted_address": "中国北京市西城区西单北大街180号西单文化广场b1",
            "geometry": {
                "location": {
                    "lat": 39.908842,
                    "lng": 116.374797
                },
                "viewport": {
                    "northeast": {
                        "lat": 39.91025597989272,
                        "lng": 116.3761468798927
                    },
                    "southwest": {
                        "lat": 39.90755632010728,
                        "lng": 116.3734472201073
                    }
                }
            },
            "icon": "https://maps.gstatic.com/mapfiles/place_api/icons/generic_business-71.png",
            "id": "0fe144cc8438a75e2e92fa4caf55b43fcfe95e3d",
            "name": "优尼可",
            "place_id": "ChIJw3kNpolS8DUR37ACPRwM40Y",
            "plus_code": {
                "compound_code": "W95F+GW 西城区 中国北京市",
                "global_code": "8PFRW95F+GW"
            },
            "rating": 0,
            "reference": "ChIJw3kNpolS8DUR37ACPRwM40Y",
            "types": [
                "point_of_interest",
                "establishment"
            ],
            "user_ratings_total": 0
        },
        {
            "business_status": "OPERATIONAL",
            "formatted_address": "中国北京市朝阳区祁家坟54号",
            "geometry": {
                "location": {
                    "lat": 39.875692,
                    "lng": 116.485528
                },
                "viewport": {
                    "northeast": {
                        "lat": 39.87700977989272,
                        "lng": 116.4868775298927
                    },
                    "southwest": {
                        "lat": 39.87431012010727,
                        "lng": 116.4841778701073
                    }
                }
            },
            "icon": "https://maps.gstatic.com/mapfiles/place_api/icons/generic_business-71.png",
            "id": "8f57153661cca2645146dfd519ccf234d4ffe76d",
            "name": "上海浪潮机器有限公司北京分公司",
            "place_id": "ChIJwxrZOYyt8TURXQOYVnVOP_Q",
            "plus_code": {
                "compound_code": "VFGP+76 朝阳区 中国北京市",
                "global_code": "8PFRVFGP+76"
            },
            "rating": 0,
            "reference": "ChIJwxrZOYyt8TURXQOYVnVOP_Q",
            "types": [
                "point_of_interest",
                "establishment"
            ],
            "user_ratings_total": 0
        },
        {
            "business_status": "OPERATIONAL",
            "formatted_address": "中国北京市海淀区学院南路62号",
            "geometry": {
                "location": {
                    "lat": 39.957461,
                    "lng": 116.337578
                },
                "viewport": {
                    "northeast": {
                        "lat": 39.95893132989271,
                        "lng": 116.3389165298928
                    },
                    "southwest": {
                        "lat": 39.95623167010727,
                        "lng": 116.3362168701073
                    }
                }
            },
            "icon": "https://maps.gstatic.com/mapfiles/place_api/icons/generic_business-71.png",
            "id": "1e53fa274f4ed1f884faa9ebfbb4661cb8bb5667",
            "name": "江西气体压缩机厂驻北京办事处",
            "place_id": "ChIJUffyosRT8DURlMUE96FpFnc",
            "plus_code": {
                "compound_code": "X84Q+X2 海淀区 中国北京市",
                "global_code": "8PFRX84Q+X2"
            },
            "rating": 0,
            "reference": "ChIJUffyosRT8DURlMUE96FpFnc",
            "types": [
                "point_of_interest",
                "establishment"
            ],
            "user_ratings_total": 0
        },
        {
            "business_status": "OPERATIONAL",
            "formatted_address": "中国北京市丰台区右安门外开阳里三街六区11号楼1207室",
            "geometry": {
                "location": {
                    "lat": 39.86519,
                    "lng": 116.371138
                },
                "viewport": {
                    "northeast": {
                        "lat": 39.86654107989272,
                        "lng": 116.3725339298927
                    },
                    "southwest": {
                        "lat": 39.86384142010728,
                        "lng": 116.3698342701073
                    }
                }
            },
            "icon": "https://maps.gstatic.com/mapfiles/place_api/icons/generic_business-71.png",
            "id": "fe6fe3113e5ce4e070e8847fb9928b6085729854",
            "name": "北京罗德康普螺杆压缩机经销有限公司",
            "place_id": "ChIJZZDLxalN8DURAUVEbc7o0UY",
            "plus_code": {
                "compound_code": "V98C+3F 丰台区 中国北京市",
                "global_code": "8PFRV98C+3F"
            },
            "rating": 0,
            "reference": "ChIJZZDLxalN8DURAUVEbc7o0UY",
            "types": [
                "point_of_interest",
                "establishment"
            ],
            "user_ratings_total": 0
        }
    ],
    "status": "OK"
}