{
    "html_attributions": [],
    "next_page_token": "CrQCJgEAAHCS-S8HgxQG7r76pF9lGDd3Xh7urBEvkz7xMxtOiHMIqXXb0Uqi8YLXIxc4Q-MzQrlFeImVvy49gWZVRlosVQotY1rVxJTw0rE_eFeJbLiB-TZjFeEyf148axJOHU44ju_3aQIzEh2RN5uc016covXKbMqNUsO7tLZADMOfJnQLqnMxT1kaMHyTwO_3i_v_VdgolDHIp1PxH_3Uf_BMKeohIGLiAG4HPdB1lNjn2qajAFHKeQ-oTJm5M8uZPLh2peK806cO35dYsYn0LwSftwx5ccslBxKzSGbxNQzHbW8JEW8LyzR9SmB3ryuU8B1jBvP1o93-YGA46xWjWFtl_VI_N7hmFA5lD8u2ioTy1kLQA_F8OVTA4oyRp4D62_raWZSsq1pCtFS3qmaRyvFcRvoSEA0O7hmDZnO1LYpPCGOdpEoaFAG5QDOn013GZTff-0kNQ0ISKwmR",
    "results": [
        {
            "business_status": "OPERATIONAL",
            "formatted_address": "中国北京市大兴区南中轴路",
            "geometry": {
                "location": {
                    "lat": 39.75631,
                    "lng": 116.401549
                },
                "viewport": {
                    "northeast": {
                        "lat": 39.75766007989272,
                        "lng": 116.4029610298927
                    },
                    "southwest": {
                        "lat": 39.75496042010727,
                        "lng": 116.4002613701073
                    }
                }
            },
            "icon": "https://maps.gstatic.com/mapfiles/place_api/icons/generic_business-71.png",
            "id": "c63cbe31105986aad6125005a06ec742ee425b49",
            "name": "空气压缩机",
            "place_id": "ChIJy3bttMBK8DURGV7ikSZopEY",
            "plus_code": {
                "compound_code": "QC42+GJ 大兴区 中国北京市",
                "global_code": "8PFRQC42+GJ"
            },
            "rating": 0,
            "reference": "ChIJy3bttMBK8DURGV7ikSZopEY",
            "types": [
                "point_of_interest",
                "establishment"
            ],
            "user_ratings_total": 0
        },
        {
            "business_status": "OPERATIONAL",
            "formatted_address": "中国北京市海淀区北四环西路88-3号",
            "geometry": {
                "location": {
                    "lat": 39.972981,
                    "lng": 116.2828
                },
                "viewport": {
                    "northeast": {
                        "lat": 39.97434062989272,
                        "lng": 116.2841423798927
                    },
                    "southwest": {
                        "lat": 39.97164097010728,
                        "lng": 116.2814427201073
                    }
                }
            },
            "icon": "https://maps.gstatic.com/mapfiles/place_api/icons/generic_business-71.png",
            "id": "82aa80c8c8f20e0aba547c48f474c074eeab9a19",
            "name": "复盛牌空气压缩机",
            "place_id": "ChIJ1cpzxR5R8DURTBUtHUDmub8",
            "plus_code": {
                "compound_code": "X7FM+54 海淀区 中国北京市",
                "global_code": "8PFRX7FM+54"
            },
            "rating": 0,
            "reference": "ChIJ1cpzxR5R8DURTBUtHUDmub8",
            "types": [
                "point_of_interest",
                "establishment"
            ],
            "user_ratings_total": 0
        },
        {
            "business_status": "OPERATIONAL",
            "formatted_address": "中国北京市丰台区东铁营宋庄路6号",
            "geometry": {
                "location": {
                    "lat": 39.855521,
                    "lng": 116.430489
                },
                "viewport": {
                    "northeast": {
                        "lat": 39.85695667989272,
                        "lng": 116.4318398298928
                    },
                    "southwest": {
                        "lat": 39.85425702010727,
                        "lng": 116.4291401701073
                    }
                }
            },
            "icon": "https://maps.gstatic.com/mapfiles/place_api/icons/generic_business-71.png",
            "id": "96b2dd62c63164ba2097943c0dc5796e7a6c393d",
            "name": "腾程空气压缩机维修中心",
            "place_id": "ChIJAfbaj8-y8TURfFof4VOqr_4",
            "plus_code": {
                "compound_code": "VC4J+65 丰台区 中国北京市",
                "global_code": "8PFRVC4J+65"
            },
            "rating": 0,
            "reference": "ChIJAfbaj8-y8TURfFof4VOqr_4",
            "types": [
                "point_of_interest",
                "establishment"
            ],
            "user_ratings_total": 0
        },
        {
            "business_status": "OPERATIONAL",
            "formatted_address": "中国北京市朝阳区化工路路口东侧甲6号",
            "geometry": {
                "location": {
                    "lat": 39.87471900000001,
                    "lng": 116.506878
                },
                "viewport": {
                    "northeast": {
                        "lat": 39.87621357989273,
                        "lng": 116.5082388298927
                    },
                    "southwest": {
                        "lat": 39.87351392010728,
                        "lng": 116.5055391701073
                    }
                }
            },
            "icon": "https://maps.gstatic.com/mapfiles/place_api/icons/generic_business-71.png",
            "id": "fa60471fd517e0aa75febc5447c42a6e625f8a28",
            "name": "北京钻石空气压缩机销售中心",
            "place_id": "ChIJS-oVluSt8TURahLMg-I4BSc",
            "plus_code": {
                "compound_code": "VGF4+VQ 朝阳区 中国北京市",
                "global_code": "8PFRVGF4+VQ"
            },
            "rating": 0,
            "reference": "ChIJS-oVluSt8TURahLMg-I4BSc",
            "types": [
                "point_of_interest",
                "establishment"
            ],
            "user_ratings_total": 0
        },
        {
            "business_status": "OPERATIONAL",
            "formatted_address": "中国北京市朝阳区大羊坊路",
            "geometry": {
                "location": {
                    "lat": 39.83383,
                    "lng": 116.499615
                },
                "viewport": {
                    "northeast": {
                        "lat": 39.83520182989272,
                        "lng": 116.5009996798927
                    },
                    "southwest": {
                        "lat": 39.83250217010728,
                        "lng": 116.4983000201073
                    }
                }
            },
            "icon": "https://maps.gstatic.com/mapfiles/place_api/icons/shopping-71.png",
            "id": "0371646e068859c4dfbfa9f0e10e88525fb1d92f",
            "name": "市建华空气压缩机配件门市部",
            "place_id": "ChIJky0LpTGy8TURcvtOroi8om0",
            "plus_code": {
                "compound_code": "RFMX+GR 朝阳区 中国北京市",
                "global_code": "8PFRRFMX+GR"
            },
            "rating": 0,
            "reference": "ChIJky0LpTGy8TURcvtOroi8om0",
            "types": [
                "store",
                "point_of_interest",
                "establishment"
            ],
            "user_ratings_total": 0
        },
        {
            "business_status": "OPERATIONAL",
            "formatted_address": "中国北京市通州区周易北街",
            "geometry": {
                "location": {
                    "lat": 39.7343141,
                    "lng": 116.5818883
                },
                "viewport": {
                    "northeast": {
                        "lat": 39.73561867989272,
                        "lng": 116.5832388298927
                    },
                    "southwest": {
                        "lat": 39.73291902010727,
                        "lng": 116.5805391701073
                    }
                }
            },
            "icon": "https://maps.gstatic.com/mapfiles/place_api/icons/generic_business-71.png",
            "id": "6c45d8091a152beb36e691e1fd0804a95da50c81",
            "name": "丰电阿特拉斯空气压缩机维修部",
            "place_id": "ChIJV4sedwu38TURqYdU9asqC8A",
            "plus_code": {
                "compound_code": "PHMJ+PQ 通州区 中国北京市",
                "global_code": "8PFRPHMJ+PQ"
            },
            "rating": 0,
            "reference": "ChIJV4sedwu38TURqYdU9asqC8A",
            "types": [
                "point_of_interest",
                "establishment"
            ],
            "user_ratings_total": 0
        },
        {
            "business_status": "OPERATIONAL",
            "formatted_address": "中国河北省保定市高碑店市",
            "geometry": {
                "location": {
                    "lat": 39.322449,
                    "lng": 115.85873
                },
                "viewport": {
                    "northeast": {
                        "lat": 39.32381532989273,
                        "lng": 115.8600884298927
                    },
                    "southwest": {
                        "lat": 39.32111567010728,
                        "lng": 115.8573887701073
                    }
                }
            },
            "icon": "https://maps.gstatic.com/mapfiles/place_api/icons/shopping-71.png",
            "id": "0c832eaaf976bdcfaa63a59d7cf07a2f0de4f8c2",
            "name": "兴源空气压缩机销售部",
            "place_id": "ChIJY_B_GPzt7zUReg_PgKlY-2g",
            "plus_code": {
                "compound_code": "8VC5+XF 高碑店市 中国河北省保定市",
                "global_code": "8PFQ8VC5+XF"
            },
            "rating": 0,
            "reference": "ChIJY_B_GPzt7zUReg_PgKlY-2g",
            "types": [
                "store",
                "point_of_interest",
                "establishment"
            ],
            "user_ratings_total": 0
        },
        {
            "business_status": "OPERATIONAL",
            "formatted_address": "中国北京市朝阳区成寿寺路308号",
            "geometry": {
                "location": {
                    "lat": 39.835089,
                    "lng": 116.44711
                },
                "viewport": {
                    "northeast": {
                        "lat": 39.83643887989272,
                        "lng": 116.4484486298928
                    },
                    "southwest": {
                        "lat": 39.83373922010728,
                        "lng": 116.4457489701073
                    }
                }
            },
            "icon": "https://maps.gstatic.com/mapfiles/place_api/icons/generic_business-71.png",
            "id": "113bd68731d589abd66c6bf8a227e7445f587e76",
            "name": "南川仪空压机成套设备经销中心",
            "place_id": "ChIJOasdNBmz8TURe_E-kG9Om9k",
            "plus_code": {
                "compound_code": "RCPW+2R 朝阳区 中国北京市",
                "global_code": "8PFRRCPW+2R"
            },
            "rating": 0,
            "reference": "ChIJOasdNBmz8TURe_E-kG9Om9k",
            "types": [
                "point_of_interest",
                "establishment"
            ],
            "user_ratings_total": 0
        },
        {
            "business_status": "OPERATIONAL",
            "formatted_address": "中国北京市海淀区北三环西路3号,蓟门桥西北角",
            "geometry": {
                "location": {
                    "lat": 39.968056,
                    "lng": 116.352239
                },
                "viewport": {
                    "northeast": {
                        "lat": 39.96937097989272,
                        "lng": 116.3535890298927
                    },
                    "southwest": {
                        "lat": 39.96667132010727,
                        "lng": 116.3508893701073
                    }
                }
            },
            "icon": "https://maps.gstatic.com/mapfiles/place_api/icons/shopping-71.png",
            "id": "befb7f5b15a0548cffaa3998ddf40ff5cf209f24",
            "name": "复盛牌空压缩机销售中心",
            "place_id": "ChIJ2_tacZJT8DUR5NaMnTolhwE",
            "plus_code": {
                "compound_code": "X992+6V 海淀区 中国北京市",
                "global_code": "8PFRX992+6V"
            },
            "rating": 0,
            "reference": "ChIJ2_tacZJT8DUR5NaMnTolhwE",
            "types": [
                "store",
                "point_of_interest",
                "establishment"
            ],
            "user_ratings_total": 0
        },
        {
            "business_status": "OPERATIONAL",
            "formatted_address": "中国北京市朝阳区成寿寺路185号",
            "geometry": {
                "location": {
                    "lat": 39.8372752,
                    "lng": 116.4466284
                },
                "viewport": {
                    "northeast": {
                        "lat": 39.83862782989272,
                        "lng": 116.4480998798927
                    },
                    "southwest": {
                        "lat": 39.83592817010727,
                        "lng": 116.4454002201072
                    }
                }
            },
            "icon": "https://maps.gstatic.com/mapfiles/place_api/icons/shopping-71.png",
            "id": "35c832f3c2812a003bdd5701d45ebc8b41bf92b1",
            "name": "捷豹牌空气压缩机",
            "place_id": "ChIJGUtI5R6z8TUR1uAS0eNT6WM",
            "plus_code": {
                "compound_code": "RCPW+WM 朝阳区 中国北京市",
                "global_code": "8PFRRCPW+WM"
            },
            "rating": 0,
            "reference": "ChIJGUtI5R6z8TUR1uAS0eNT6WM",
            "types": [
                "point_of_interest",
                "store",
                "establishment"
            ],
            "user_ratings_total": 0
        },
        {
            "business_status": "OPERATIONAL",
            "formatted_address": "中国北京市大兴区黄徐路",
            "geometry": {
                "location": {
                    "lat": 39.7071321,
                    "lng": 116.3503665
                },
                "viewport": {
                    "northeast": {
                        "lat": 39.70846547989272,
                        "lng": 116.3516617298927
                    },
                    "southwest": {
                        "lat": 39.70576582010727,
                        "lng": 116.3489620701073
                    }
                }
            },
            "icon": "https://maps.gstatic.com/mapfiles/place_api/icons/shopping-71.png",
            "id": "e3361c676274f1b752c2edce11fd51e9f0864f80",
            "name": "汉钟空气压缩机销售中心",
            "place_id": "ChIJMd0VW0o08DUR-hjGUFPL4tY",
            "plus_code": {
                "compound_code": "P942+V4 大兴区 中国北京市",
                "global_code": "8PFRP942+V4"
            },
            "rating": 0,
            "reference": "ChIJMd0VW0o08DUR-hjGUFPL4tY",
            "types": [
                "store",
                "point_of_interest",
                "establishment"
            ],
            "user_ratings_total": 0
        },
        {
            "business_status": "OPERATIONAL",
            "formatted_address": "中国北京市海淀区复兴路83号",
            "geometry": {
                "location": {
                    "lat": 39.907777,
                    "lng": 116.256869
                },
                "viewport": {
                    "northeast": {
                        "lat": 39.90897742989272,
                        "lng": 116.2582187298927
                    },
                    "southwest": {
                        "lat": 39.90627777010727,
                        "lng": 116.2555190701073
                    }
                }
            },
            "icon": "https://maps.gstatic.com/mapfiles/place_api/icons/generic_business-71.png",
            "id": "f084f4956f05613ff951f7ed1e50278ccfd2996d",
            "name": "北京金腾达制冷空调服务",
            "place_id": "ChIJcxxFi_9N8DURHpOJ24QTGX0",
            "plus_code": {
                "compound_code": "W754+4P 海淀区 中国北京市",
                "global_code": "8PFRW754+4P"
            },
            "rating": 0,
            "reference": "ChIJcxxFi_9N8DURHpOJ24QTGX0",
            "types": [
                "point_of_interest",
                "establishment"
            ],
            "user_ratings_total": 0
        },
        {
            "business_status": "OPERATIONAL",
            "formatted_address": "中国北京市东城区广渠门南滨河路",
            "geometry": {
                "location": {
                    "lat": 39.885729,
                    "lng": 116.443715
                },
                "viewport": {
                    "northeast": {
                        "lat": 39.88700757989272,
                        "lng": 116.4450669298927
                    },
                    "southwest": {
                        "lat": 39.88430792010727,
                        "lng": 116.4423672701073
                    }
                }
            },
            "icon": "https://maps.gstatic.com/mapfiles/place_api/icons/generic_business-71.png",
            "id": "39033ec0b6c4db1ab71d5ead4361df805a21988d",
            "name": "京城环保",
            "place_id": "ChIJF6CLZWet8TURBRWlYoHOhy4",
            "plus_code": {
                "compound_code": "VCPV+7F 东城区 中国北京市",
                "global_code": "8PFRVCPV+7F"
            },
            "rating": 0,
            "reference": "ChIJF6CLZWet8TURBRWlYoHOhy4",
            "types": [
                "point_of_interest",
                "establishment"
            ],
            "user_ratings_total": 0
        },
        {
            "business_status": "OPERATIONAL",
            "formatted_address": "中国北京市通州区京塘路",
            "geometry": {
                "location": {
                    "lat": 39.7747247,
                    "lng": 116.8002018
                },
                "viewport": {
                    "northeast": {
                        "lat": 39.77606657989272,
                        "lng": 116.8015359298927
                    },
                    "southwest": {
                        "lat": 39.77336692010728,
                        "lng": 116.7988362701072
                    }
                }
            },
            "icon": "https://maps.gstatic.com/mapfiles/place_api/icons/shopping-71.png",
            "id": "a9a6fabdc1ad4dfefcf37c8969ab449e5c217358",
            "name": "北京胜源渤龙空气压缩机经销处",
            "place_id": "ChIJSxb3AuGX8TURS-k9xJI2gp8",
            "plus_code": {
                "compound_code": "QRF2+V3 通州区 中国北京市",
                "global_code": "8PFRQRF2+V3"
            },
            "rating": 0,
            "reference": "ChIJSxb3AuGX8TURS-k9xJI2gp8",
            "types": [
                "point_of_interest",
                "establishment"
            ],
            "user_ratings_total": 0
        },
        {
            "business_status": "OPERATIONAL",
            "formatted_address": "中国北京市丰台区宋家庄顺三条21号嘉业大厦二期1号楼503室",
            "geometry": {
                "location": {
                    "lat": 39.857745,
                    "lng": 116.427057
                },
                "viewport": {
                    "northeast": {
                        "lat": 39.85912887989272,
                        "lng": 116.4284046798928
                    },
                    "southwest": {
                        "lat": 39.85642922010728,
                        "lng": 116.4257050201073
                    }
                }
            },
            "icon": "https://maps.gstatic.com/mapfiles/place_api/icons/generic_business-71.png",
            "id": "6bf5514315760cadeaac1d04903bd5c817146538",
            "name": "北京和众德真空泵压缩机有限公司",
            "place_id": "ChIJxcnB7c6y8TUReNTEkegFbOI",
            "plus_code": {
                "compound_code": "VC5G+3R 丰台区 中国北京市",
                "global_code": "8PFRVC5G+3R"
            },
            "rating": 0,
            "reference": "ChIJxcnB7c6y8TUReNTEkegFbOI",
            "types": [
                "point_of_interest",
                "establishment"
            ],
            "user_ratings_total": 0
        },
        {
            "business_status": "OPERATIONAL",
            "formatted_address": "中国北京市顺义区新华大街",
            "geometry": {
                "location": {
                    "lat": 40.174901,
                    "lng": 116.5
                },
                "viewport": {
                    "northeast": {
                        "lat": 40.17630347989272,
                        "lng": 116.5013454298927
                    },
                    "southwest": {
                        "lat": 40.17360382010727,
                        "lng": 116.4986457701073
                    }
                }
            },
            "icon": "https://maps.gstatic.com/mapfiles/place_api/icons/generic_business-71.png",
            "id": "ff0f295ae12a5e6d0938035534897874f101709e",
            "name": "泰大新世纪空调电器有限公司",
            "place_id": "ChIJBWv8RrIc8TURLMp0hjsEtXw",
            "plus_code": {
                "compound_code": "5GF2+X2 顺义区 中国北京市",
                "global_code": "8PGR5GF2+X2"
            },
            "rating": 0,
            "reference": "ChIJBWv8RrIc8TURLMp0hjsEtXw",
            "types": [
                "point_of_interest",
                "establishment"
            ],
            "user_ratings_total": 0
        },
        {
            "business_status": "OPERATIONAL",
            "formatted_address": "中国北京市西城区西单北大街180号西单文化广场b1",
            "geometry": {
                "location": {
                    "lat": 39.908842,
                    "lng": 116.374797
                },
                "viewport": {
                    "northeast": {
                        "lat": 39.91025597989272,
                        "lng": 116.3761468798927
                    },
                    "southwest": {
                        "lat": 39.90755632010728,
                        "lng": 116.3734472201073
                    }
                }
            },
            "icon": "https://maps.gstatic.com/mapfiles/place_api/icons/generic_business-71.png",
            "id": "0fe144cc8438a75e2e92fa4caf55b43fcfe95e3d",
            "name": "优尼可",
            "place_id": "ChIJw3kNpolS8DUR37ACPRwM40Y",
            "plus_code": {
                "compound_code": "W95F+GW 西城区 中国北京市",
                "global_code": "8PFRW95F+GW"
            },
            "rating": 0,
            "reference": "ChIJw3kNpolS8DUR37ACPRwM40Y",
            "types": [
                "point_of_interest",
                "establishment"
            ],
            "user_ratings_total": 0
        },
        {
            "business_status": "OPERATIONAL",
            "formatted_address": "中国北京市朝阳区祁家坟54号",
            "geometry": {
                "location": {
                    "lat": 39.875692,
                    "lng": 116.485528
                },
                "viewport": {
                    "northeast": {
                        "lat": 39.87700977989272,
                        "lng": 116.4868775298927
                    },
                    "southwest": {
                        "lat": 39.87431012010727,
                        "lng": 116.4841778701073
                    }
                }
            },
            "icon": "https://maps.gstatic.com/mapfiles/place_api/icons/generic_business-71.png",
            "id": "8f57153661cca2645146dfd519ccf234d4ffe76d",
            "name": "上海浪潮机器有限公司北京分公司",
            "place_id": "ChIJwxrZOYyt8TURXQOYVnVOP_Q",
            "plus_code": {
                "compound_code": "VFGP+76 朝阳区 中国北京市",
                "global_code": "8PFRVFGP+76"
            },
            "rating": 0,
            "reference": "ChIJwxrZOYyt8TURXQOYVnVOP_Q",
            "types": [
                "point_of_interest",
                "establishment"
            ],
            "user_ratings_total": 0
        },
        {
            "business_status": "OPERATIONAL",
            "formatted_address": "中国北京市海淀区学院南路62号",
            "geometry": {
                "location": {
                    "lat": 39.957461,
                    "lng": 116.337578
                },
                "viewport": {
                    "northeast": {
                        "lat": 39.95893132989271,
                        "lng": 116.3389165298928
                    },
                    "southwest": {
                        "lat": 39.95623167010727,
                        "lng": 116.3362168701073
                    }
                }
            },
            "icon": "https://maps.gstatic.com/mapfiles/place_api/icons/generic_business-71.png",
            "id": "1e53fa274f4ed1f884faa9ebfbb4661cb8bb5667",
            "name": "江西气体压缩机厂驻北京办事处",
            "place_id": "ChIJUffyosRT8DURlMUE96FpFnc",
            "plus_code": {
                "compound_code": "X84Q+X2 海淀区 中国北京市",
                "global_code": "8PFRX84Q+X2"
            },
            "rating": 0,
            "reference": "ChIJUffyosRT8DURlMUE96FpFnc",
            "types": [
                "point_of_interest",
                "establishment"
            ],
            "user_ratings_total": 0
        },
        {
            "business_status": "OPERATIONAL",
            "formatted_address": "中国北京市昌平区永安路",
            "geometry": {
                "location": {
                    "lat": 40.21046399999999,
                    "lng": 116.234175
                },
                "viewport": {
                    "northeast": {
                        "lat": 40.21181102989272,
                        "lng": 116.2354112298927
                    },
                    "southwest": {
                        "lat": 40.20911137010727,
                        "lng": 116.2327115701073
                    }
                }
            },
            "icon": "https://maps.gstatic.com/mapfiles/place_api/icons/shopping-71.png",
            "id": "e74f28e89317b707cda31c19b67da7f6df6819a7",
            "name": "北京远通复盛空气压缩机经销部",
            "place_id": "ChIJ6WPjWZz68DURjkodGZa9TG8",
            "plus_code": {
                "compound_code": "666M+5M 昌平区 中国北京市",
                "global_code": "8PGR666M+5M"
            },
            "rating": 0,
            "reference": "ChIJ6WPjWZz68DURjkodGZa9TG8",
            "types": [
                "point_of_interest",
                "establishment"
            ],
            "user_ratings_total": 0
        },
        {
            "business_status": "OPERATIONAL",
            "formatted_address": "中国北京市丰台区右安门外开阳里三街六区11号楼1207室",
            "geometry": {
                "location": {
                    "lat": 39.86519,
                    "lng": 116.371138
                },
                "viewport": {
                    "northeast": {
                        "lat": 39.86654107989272,
                        "lng": 116.3725339298927
                    },
                    "southwest": {
                        "lat": 39.86384142010728,
                        "lng": 116.3698342701073
                    }
                }
            },
            "icon": "https://maps.gstatic.com/mapfiles/place_api/icons/generic_business-71.png",
            "id": "fe6fe3113e5ce4e070e8847fb9928b6085729854",
            "name": "北京罗德康普螺杆压缩机经销有限公司",
            "place_id": "ChIJZZDLxalN8DURAUVEbc7o0UY",
            "plus_code": {
                "compound_code": "V98C+3F 丰台区 中国北京市",
                "global_code": "8PFRV98C+3F"
            },
            "rating": 0,
            "reference": "ChIJZZDLxalN8DURAUVEbc7o0UY",
            "types": [
                "point_of_interest",
                "establishment"
            ],
            "user_ratings_total": 0
        },
        {
            "business_status": "OPERATIONAL",
            "formatted_address": "中国北京市大兴区沙子营街四巷南",
            "geometry": {
                "location": {
                    "lat": 39.676747,
                    "lng": 116.481795
                },
                "viewport": {
                    "northeast": {
                        "lat": 39.67818772989272,
                        "lng": 116.4831313298927
                    },
                    "southwest": {
                        "lat": 39.67548807010728,
                        "lng": 116.4804316701073
                    }
                }
            },
            "icon": "https://maps.gstatic.com/mapfiles/place_api/icons/generic_business-71.png",
            "id": "896149570eba278d1188ef935dffd40a33c587ef",
            "name": "北京深蓝嘉际电子有限公司",
            "place_id": "ChIJNQbDGLPL8TURtn602cpI-OM",
            "plus_code": {
                "compound_code": "MFGJ+MP 大兴区 中国北京市",
                "global_code": "8PFRMFGJ+MP"
            },
            "rating": 0,
            "reference": "ChIJNQbDGLPL8TURtn602cpI-OM",
            "types": [
                "point_of_interest",
                "establishment"
            ],
            "user_ratings_total": 0
        },
        {
            "business_status": "OPERATIONAL",
            "formatted_address": "中国天津市东丽区津大线北方五金城D区13号楼112号",
            "geometry": {
                "location": {
                    "lat": 39.1990807,
                    "lng": 117.2779754
                },
                "viewport": {
                    "northeast": {
                        "lat": 39.20047352989273,
                        "lng": 117.2793084798927
                    },
                    "southwest": {
                        "lat": 39.19777387010728,
                        "lng": 117.2766088201073
                    }
                }
            },
            "icon": "https://maps.gstatic.com/mapfiles/place_api/icons/generic_business-71.png",
            "id": "8219e8f16904489fc82011dd8072cf8b5b068a5e",
            "name": "螺杆式空气压缩机",
            "place_id": "ChIJ047cZ7D47TURq_nuWOYoS78",
            "plus_code": {
                "compound_code": "57XH+J5 东丽区 中国天津市",
                "global_code": "8PFV57XH+J5"
            },
            "rating": 0,
            "reference": "ChIJ047cZ7D47TURq_nuWOYoS78",
            "types": [
                "point_of_interest",
                "establishment"
            ],
            "user_ratings_total": 0
        },
        {
            "business_status": "OPERATIONAL",
            "formatted_address": "中国天津市南开区黄河道501号",
            "geometry": {
                "location": {
                    "lat": 39.137563,
                    "lng": 117.130207
                },
                "viewport": {
                    "northeast": {
                        "lat": 39.13899597989273,
                        "lng": 117.1315568298927
                    },
                    "southwest": {
                        "lat": 39.13629632010728,
                        "lng": 117.1288571701073
                    }
                }
            },
            "icon": "https://maps.gstatic.com/mapfiles/place_api/icons/generic_business-71.png",
            "id": "d1f38432e5780d2b8cf0cb5c8d7e128fa07addc7",
            "name": "烟台梅卡尔空气压缩机有限公司天津经销处",
            "place_id": "ChIJMQ3lxQMH7jURIfIS7MW_ZzE",
            "plus_code": {
                "compound_code": "44QJ+23 南开区 中国天津市",
                "global_code": "8PFV44QJ+23"
            },
            "rating": 0,
            "reference": "ChIJMQ3lxQMH7jURIfIS7MW_ZzE",
            "types": [
                "point_of_interest",
                "establishment"
            ],
            "user_ratings_total": 0
        },
        {
            "business_status": "OPERATIONAL",
            "formatted_address": "中国天津市北辰区津围公路",
            "geometry": {
                "location": {
                    "lat": 39.250499,
                    "lng": 117.24428
                },
                "viewport": {
                    "northeast": {
                        "lat": 39.25179022989272,
                        "lng": 117.2456383798927
                    },
                    "southwest": {
                        "lat": 39.24909057010727,
                        "lng": 117.2429387201073
                    }
                }
            },
            "icon": "https://maps.gstatic.com/mapfiles/place_api/icons/generic_business-71.png",
            "id": "bd212f9b2e55b0c8134291d005d7778b96a14a7b",
            "name": "天津市巨风螺杆空气压缩机销售服务处",
            "place_id": "ChIJ11Udgd0A8jUR1_ku9o7KL1w",
            "plus_code": {
                "compound_code": "762V+5P 北辰区 中国天津市",
                "global_code": "8PFV762V+5P"
            },
            "rating": 0,
            "reference": "ChIJ11Udgd0A8jUR1_ku9o7KL1w",
            "types": [
                "point_of_interest",
                "establishment"
            ],
            "user_ratings_total": 0
        },
        {
            "business_status": "OPERATIONAL",
            "formatted_address": "中国天津市河东区津塘路175号",
            "geometry": {
                "location": {
                    "lat": 39.09532,
                    "lng": 117.29459
                },
                "viewport": {
                    "northeast": {
                        "lat": 39.09667537989272,
                        "lng": 117.2958847798927
                    },
                    "southwest": {
                        "lat": 39.09397572010727,
                        "lng": 117.2931851201073
                    }
                }
            },
            "icon": "https://maps.gstatic.com/mapfiles/place_api/icons/generic_business-71.png",
            "id": "ca82c1db19aefe15e3adb08f909b15042e949d49",
            "name": "天津市微型空气压缩机厂经销处",
            "place_id": "ChIJ4fMp1qP77TURtnj7auM9cQg",
            "plus_code": {
                "compound_code": "37WV+4R 河东区 中国天津市",
                "global_code": "8PFV37WV+4R"
            },
            "rating": 0,
            "reference": "ChIJ4fMp1qP77TURtnj7auM9cQg",
            "types": [
                "point_of_interest",
                "establishment"
            ],
            "user_ratings_total": 0
        },
        {
            "business_status": "OPERATIONAL",
            "formatted_address": "中国天津市河西区解放南路449增1号",
            "geometry": {
                "location": {
                    "lat": 39.0817399,
                    "lng": 117.2326425
                },
                "viewport": {
                    "northeast": {
                        "lat": 39.08308987989273,
                        "lng": 117.2338942798927
                    },
                    "southwest": {
                        "lat": 39.08039022010728,
                        "lng": 117.2311946201072
                    }
                }
            },
            "icon": "https://maps.gstatic.com/mapfiles/place_api/icons/generic_business-71.png",
            "id": "6d811a9746d0a94e3324754969de475eacc4d1fc",
            "name": "长春空气压缩机厂特约销售处",
            "place_id": "ChIJCVeVq8T87TURHDyxQHn4lNo",
            "plus_code": {
                "compound_code": "36JM+M3 河西区 中国天津市",
                "global_code": "8PFV36JM+M3"
            },
            "rating": 0,
            "reference": "ChIJCVeVq8T87TURHDyxQHn4lNo",
            "types": [
                "point_of_interest",
                "establishment"
            ],
            "user_ratings_total": 0
        },
        {
            "business_status": "OPERATIONAL",
            "formatted_address": "中国天津市南开区黄河道",
            "geometry": {
                "location": {
                    "lat": 39.1376183,
                    "lng": 117.1328611
                },
                "viewport": {
                    "northeast": {
                        "lat": 39.13902127989272,
                        "lng": 117.1342100798928
                    },
                    "southwest": {
                        "lat": 39.13632162010727,
                        "lng": 117.1315104201073
                    }
                }
            },
            "icon": "https://maps.gstatic.com/mapfiles/place_api/icons/shopping-71.png",
            "id": "4e87f42fc821d8a5b176f3b6378bfe060b6f803a",
            "name": "天津市空气压缩机销售部",
            "place_id": "ChIJQ8hicQQH7jURYoFMUKvPgKI",
            "plus_code": {
                "compound_code": "44QM+24 南开区 中国天津市",
                "global_code": "8PFV44QM+24"
            },
            "rating": 0,
            "reference": "ChIJQ8hicQQH7jURYoFMUKvPgKI",
            "types": [
                "store",
                "point_of_interest",
                "establishment"
            ],
            "user_ratings_total": 0
        },
        {
            "business_status": "OPERATIONAL",
            "formatted_address": "中国天津市津南区",
            "geometry": {
                "location": {
                    "lat": 39.018969,
                    "lng": 117.322298
                },
                "viewport": {
                    "northeast": {
                        "lat": 39.02037262989272,
                        "lng": 117.3238386298927
                    },
                    "southwest": {
                        "lat": 39.01767297010728,
                        "lng": 117.3211389701073
                    }
                }
            },
            "icon": "https://maps.gstatic.com/mapfiles/place_api/icons/generic_business-71.png",
            "id": "9ad6f384c40a11b6fe339fc5d527af44ded9fb20",
            "name": "韩信空气压缩机厂",
            "place_id": "ChIJVZSQvBvl7TUR0NO_DAb2TbM",
            "plus_code": {
                "compound_code": "289C+HW 津南区 中国天津市",
                "global_code": "8PFV289C+HW"
            },
            "rating": 0,
            "reference": "ChIJVZSQvBvl7TUR0NO_DAb2TbM",
            "types": [
                "point_of_interest",
                "establishment"
            ],
            "user_ratings_total": 0
        },
        {
            "business_status": "OPERATIONAL",
            "formatted_address": "中国天津市红桥区西青道65号",
            "geometry": {
                "location": {
                    "lat": 39.1550224,
                    "lng": 117.1556217
                },
                "viewport": {
                    "northeast": {
                        "lat": 39.15647572989273,
                        "lng": 117.1569448298927
                    },
                    "southwest": {
                        "lat": 39.15377607010728,
                        "lng": 117.1542451701073
                    }
                }
            },
            "icon": "https://maps.gstatic.com/mapfiles/place_api/icons/generic_business-71.png",
            "id": "512d87e0944b4d9c8fde506e0f572a3c68c2c749",
            "name": "天津市宏圣业空气压缩机销售有限公司",
            "place_id": "ChIJy46wrUgH7jURsNz05UewPvg",
            "plus_code": {
                "compound_code": "5544+26 红桥区 中国天津市",
                "global_code": "8PFV5544+26"
            },
            "rating": 0,
            "reference": "ChIJy46wrUgH7jURsNz05UewPvg",
            "types": [
                "point_of_interest",
                "establishment"
            ],
            "user_ratings_total": 0
        },
        {
            "business_status": "OPERATIONAL",
            "formatted_address": "中国天津市东丽区四纬路",
            "geometry": {
                "location": {
                    "lat": 39.0670846,
                    "lng": 117.347783
                },
                "viewport": {
                    "northeast": {
                        "lat": 39.06837787989272,
                        "lng": 117.3491026298927
                    },
                    "southwest": {
                        "lat": 39.06567822010728,
                        "lng": 117.3464029701073
                    }
                }
            },
            "icon": "https://maps.gstatic.com/mapfiles/place_api/icons/generic_business-71.png",
            "id": "b916c22b3c5148de711dd7f1d2b580593a664295",
            "name": "天津市空气压缩制造厂",
            "place_id": "ChIJH9hTJpD67TURtKGqyPOAq8s",
            "plus_code": {
                "compound_code": "388X+R4 东丽区 中国天津市",
                "global_code": "8PFV388X+R4"
            },
            "rating": 0,
            "reference": "ChIJH9hTJpD67TURtKGqyPOAq8s",
            "types": [
                "point_of_interest",
                "establishment"
            ],
            "user_ratings_total": 0
        },
        {
            "business_status": "OPERATIONAL",
            "formatted_address": "中国天津市东丽区一经路",
            "geometry": {
                "location": {
                    "lat": 39.06731,
                    "lng": 117.347352
                },
                "viewport": {
                    "northeast": {
                        "lat": 39.06866492989272,
                        "lng": 117.3486912298927
                    },
                    "southwest": {
                        "lat": 39.06596527010728,
                        "lng": 117.3459915701073
                    }
                }
            },
            "icon": "https://maps.gstatic.com/mapfiles/place_api/icons/generic_business-71.png",
            "id": "b00ce3914da9c3db1962176dc09d7abba61565d1",
            "name": "天津市空气压缩机制造厂",
            "place_id": "ChIJJXR7KZD67TURP-XqPTiGm2o",
            "plus_code": {
                "compound_code": "388W+WW 东丽区 中国天津市",
                "global_code": "8PFV388W+WW"
            },
            "rating": 0,
            "reference": "ChIJJXR7KZD67TURP-XqPTiGm2o",
            "types": [
                "point_of_interest",
                "establishment"
            ],
            "user_ratings_total": 0
        },
        {
            "business_status": "OPERATIONAL",
            "formatted_address": "中国天津市静海区静王路",
            "geometry": {
                "location": {
                    "lat": 38.832156,
                    "lng": 117.057708
                },
                "viewport": {
                    "northeast": {
                        "lat": 38.83341237989271,
                        "lng": 117.0589346298927
                    },
                    "southwest": {
                        "lat": 38.83071272010727,
                        "lng": 117.0562349701073
                    }
                }
            },
            "icon": "https://maps.gstatic.com/mapfiles/place_api/icons/shopping-71.png",
            "id": "6edc3d301104d2655be592c39020bdafd1867b5d",
            "name": "永兴电动工具空气压缩机气动打包机",
            "place_id": "ChIJxfsdEt1w7jUR_0T0luHzgTo",
            "plus_code": {
                "compound_code": "R3J5+V3 静海区 中国天津市",
                "global_code": "8PCVR3J5+V3"
            },
            "rating": 0,
            "reference": "ChIJxfsdEt1w7jUR_0T0luHzgTo",
            "types": [
                "point_of_interest",
                "establishment"
            ],
            "user_ratings_total": 0
        },
        {
            "business_status": "OPERATIONAL",
            "formatted_address": "中国天津市东丽区津北公路",
            "geometry": {
                "location": {
                    "lat": 39.106774,
                    "lng": 117.370944
                },
                "viewport": {
                    "northeast": {
                        "lat": 39.10795332989272,
                        "lng": 117.3722944298927
                    },
                    "southwest": {
                        "lat": 39.10525367010728,
                        "lng": 117.3695947701073
                    }
                }
            },
            "icon": "https://maps.gstatic.com/mapfiles/place_api/icons/generic_business-71.png",
            "id": "9e223a4a89eb72a5da5b981dc1ca57890d75ad03",
            "name": "天津市微型空气压缩机厂",
            "place_id": "ChIJe1Qnrq3w7TURSJb3rGtUo2k",
            "plus_code": {
                "compound_code": "494C+P9 东丽区 中国天津市",
                "global_code": "8PFV494C+P9"
            },
            "rating": 0,
            "reference": "ChIJe1Qnrq3w7TURSJb3rGtUo2k",
            "types": [
                "point_of_interest",
                "establishment"
            ],
            "user_ratings_total": 0
        },
        {
            "business_status": "OPERATIONAL",
            "formatted_address": "中国天津市津南区金石南里1号楼",
            "geometry": {
                "location": {
                    "lat": 38.999588,
                    "lng": 117.37921
                },
                "viewport": {
                    "northeast": {
                        "lat": 39.00099067989272,
                        "lng": 117.3806662798927
                    },
                    "southwest": {
                        "lat": 38.99829102010728,
                        "lng": 117.3779666201072
                    }
                }
            },
            "icon": "https://maps.gstatic.com/mapfiles/place_api/icons/generic_business-71.png",
            "id": "5ea4ff34d9e7b12cfeec965b5e6270e7ce3c32fb",
            "name": "越顺空压机配件",
            "place_id": "ChIJEXIRKJrv7TURDaVsO7K7Xio",
            "plus_code": {
                "compound_code": "X9XH+RM 津南区 中国天津市",
                "global_code": "8PCVX9XH+RM"
            },
            "rating": 0,
            "reference": "ChIJEXIRKJrv7TURDaVsO7K7Xio",
            "types": [
                "point_of_interest",
                "establishment"
            ],
            "user_ratings_total": 0
        },
        {
            "business_status": "OPERATIONAL",
            "formatted_address": "中国天津市河北区金钟河大街545号",
            "geometry": {
                "location": {
                    "lat": 39.1589407,
                    "lng": 117.2226807
                },
                "viewport": {
                    "northeast": {
                        "lat": 39.16017317989272,
                        "lng": 117.2241746798928
                    },
                    "southwest": {
                        "lat": 39.15747352010727,
                        "lng": 117.2214750201073
                    }
                }
            },
            "icon": "https://maps.gstatic.com/mapfiles/place_api/icons/generic_business-71.png",
            "id": "9a1f42b5a91aa60dad997e73b0ec14797de5ddfe",
            "name": "英格索兰空压机",
            "place_id": "ChIJj3jTUYj-7TURoJqKAiIg2sA",
            "plus_code": {
                "compound_code": "565F+H3 河北区 中国天津市",
                "global_code": "8PFV565F+H3"
            },
            "rating": 0,
            "reference": "ChIJj3jTUYj-7TURoJqKAiIg2sA",
            "types": [
                "point_of_interest",
                "establishment"
            ],
            "user_ratings_total": 0
        },
        {
            "business_status": "OPERATIONAL",
            "formatted_address": "中国天津市东丽区",
            "geometry": {
                "location": {
                    "lat": 39.109509,
                    "lng": 117.368619
                },
                "viewport": {
                    "northeast": {
                        "lat": 39.11083572989272,
                        "lng": 117.3700849798927
                    },
                    "southwest": {
                        "lat": 39.10813607010727,
                        "lng": 117.3673853201072
                    }
                }
            },
            "icon": "https://maps.gstatic.com/mapfiles/place_api/icons/generic_business-71.png",
            "id": "54eb0157669181cd77e03a02fe49d6c1c3771e5d",
            "name": "天津金辉空气压缩机制造有限公司",
            "place_id": "ChIJxzf9u6zw7TURH7ISVhAmcKE",
            "plus_code": {
                "compound_code": "4959+RC 东丽区 中国天津市",
                "global_code": "8PFV4959+RC"
            },
            "rating": 0,
            "reference": "ChIJxzf9u6zw7TURH7ISVhAmcKE",
            "types": [
                "point_of_interest",
                "establishment"
            ],
            "user_ratings_total": 0
        },
        {
            "business_status": "OPERATIONAL",
            "formatted_address": "中国河北省唐山市路南区车站路150号",
            "geometry": {
                "location": {
                    "lat": 39.621051,
                    "lng": 118.197155
                },
                "viewport": {
                    "northeast": {
                        "lat": 39.62237127989272,
                        "lng": 118.1986141298927
                    },
                    "southwest": {
                        "lat": 39.61967162010728,
                        "lng": 118.1959144701073
                    }
                }
            },
            "icon": "https://maps.gstatic.com/mapfiles/place_api/icons/shopping-71.png",
            "id": "984dc995d78190f8577795e1b5bccb92a7ac8844",
            "name": "沈阳空气压缩机制造厂唐山销售处",
            "place_id": "ChIJ37w6zdMd8zURUKzJTJucHro",
            "plus_code": {
                "compound_code": "J5CW+CV 路南区 中国河北省唐山市",
                "global_code": "8PFWJ5CW+CV"
            },
            "rating": 0,
            "reference": "ChIJ37w6zdMd8zURUKzJTJucHro",
            "types": [
                "point_of_interest",
                "establishment"
            ],
            "user_ratings_total": 0
        },
        {
            "business_status": "OPERATIONAL",
            "formatted_address": "中国河北省石家庄市晋州市和平路138号",
            "geometry": {
                "location": {
                    "lat": 38.027815,
                    "lng": 115.055019
                },
                "viewport": {
                    "northeast": {
                        "lat": 38.02917907989271,
                        "lng": 115.0563696798927
                    },
                    "southwest": {
                        "lat": 38.02647942010727,
                        "lng": 115.0536700201073
                    }
                }
            },
            "icon": "https://maps.gstatic.com/mapfiles/place_api/icons/shopping-71.png",
            "id": "f155ace3d52ab0065354679985de3ceb992ea1e3",
            "name": "河北英格索兰空气压缩机销售服务中心",
            "place_id": "ChIJjYxoUYRa5jURSbosu8PzwA4",
            "plus_code": {
                "compound_code": "23H4+42 晋州市 中国河北省石家庄市",
                "global_code": "8PCQ23H4+42"
            },
            "rating": 0,
            "reference": "ChIJjYxoUYRa5jURSbosu8PzwA4",
            "types": [
                "store",
                "point_of_interest",
                "establishment"
            ],
            "user_ratings_total": 0
        },
        {
            "business_status": "OPERATIONAL",
            "formatted_address": "中国河北省石家庄市裕华区胜利南街",
            "geometry": {
                "location": {
                    "lat": 37.992822,
                    "lng": 114.495082
                },
                "viewport": {
                    "northeast": {
                        "lat": 37.99411567989272,
                        "lng": 114.4960268798927
                    },
                    "southwest": {
                        "lat": 37.99141602010728,
                        "lng": 114.4933272201073
                    }
                }
            },
            "icon": "https://maps.gstatic.com/mapfiles/place_api/icons/generic_business-71.png",
            "id": "a24c3cf7d7b56583bfc990ffc552c1575c433488",
            "name": "云箭空气压缩机",
            "place_id": "ChIJS8TXG4zf5jUR7Umm2l7u8kg",
            "plus_code": {
                "compound_code": "XFVW+42 裕华区 中国河北省石家庄市",
                "global_code": "8P9PXFVW+42"
            },
            "rating": 0,
            "reference": "ChIJS8TXG4zf5jUR7Umm2l7u8kg",
            "types": [
                "point_of_interest",
                "establishment"
            ],
            "user_ratings_total": 0
        },
        {
            "business_status": "OPERATIONAL",
            "formatted_address": "中国河北省唐山市路南区南新东道151号",
            "geometry": {
                "location": {
                    "lat": 39.615614,
                    "lng": 118.204561
                },
                "viewport": {
                    "northeast": {
                        "lat": 39.61682142989272,
                        "lng": 118.2058607798927
                    },
                    "southwest": {
                        "lat": 39.61412177010728,
                        "lng": 118.2031611201073
                    }
                }
            },
            "icon": "https://maps.gstatic.com/mapfiles/place_api/icons/generic_business-71.png",
            "id": "3ac65cb75464cc8378a38a138c738e48a53f7aae",
            "name": "津京沈空压机厂驻唐山路南销售处",
            "place_id": "ChIJnQOlydcd8zURWSlBRpLl3uM",
            "plus_code": {
                "compound_code": "J683+6R 路南区 中国河北省唐山市",
                "global_code": "8PFWJ683+6R"
            },
            "rating": 0,
            "reference": "ChIJnQOlydcd8zURWSlBRpLl3uM",
            "types": [
                "point_of_interest",
                "establishment"
            ],
            "user_ratings_total": 0
        },
        {
            "business_status": "OPERATIONAL",
            "formatted_address": "中国天津市东丽区209省道43号",
            "geometry": {
                "location": {
                    "lat": 39.0873953,
                    "lng": 117.3435718
                },
                "viewport": {
                    "northeast": {
                        "lat": 39.08873012989272,
                        "lng": 117.3449733298928
                    },
                    "southwest": {
                        "lat": 39.08603047010727,
                        "lng": 117.3422736701073
                    }
                }
            },
            "icon": "https://maps.gstatic.com/mapfiles/place_api/icons/generic_business-71.png",
            "id": "5b1d4d18fd74a34d1e9b32184086397b3ece26dc",
            "name": "天津市舒塔克压缩机有限公司",
            "place_id": "ChIJtxJhBGb67TURsNYFvkb-E6c",
            "plus_code": {
                "compound_code": "38PV+XC 东丽区 中国天津市",
                "global_code": "8PFV38PV+XC"
            },
            "rating": 0,
            "reference": "ChIJtxJhBGb67TURsNYFvkb-E6c",
            "types": [
                "point_of_interest",
                "establishment"
            ],
            "user_ratings_total": 0
        },
        {
            "business_status": "OPERATIONAL",
            "formatted_address": "中国天津市东丽区津大线北方五金城F区5号楼107号",
            "geometry": {
                "location": {
                    "lat": 39.1979939,
                    "lng": 117.276857
                },
                "viewport": {
                    "northeast": {
                        "lat": 39.19938662989272,
                        "lng": 117.2781899798927
                    },
                    "southwest": {
                        "lat": 39.19668697010728,
                        "lng": 117.2754903201072
                    }
                }
            },
            "icon": "https://maps.gstatic.com/mapfiles/place_api/icons/restaurant-71.png",
            "id": "6291d380beae5c8956d7310da0b0914afb3ed539",
            "name": "宏联瑞诚食品机械商行",
            "place_id": "ChIJge1A5LD47TURGLDPVJ6EFW8",
            "plus_code": {
                "compound_code": "57XG+5P 东丽区 中国天津市",
                "global_code": "8PFV57XG+5P"
            },
            "rating": 0,
            "reference": "ChIJge1A5LD47TURGLDPVJ6EFW8",
            "types": [
                "restaurant",
                "food",
                "point_of_interest",
                "establishment"
            ],
            "user_ratings_total": 0
        },
        {
            "business_status": "OPERATIONAL",
            "formatted_address": "中国山西省长治市长兴北路",
            "geometry": {
                "location": {
                    "lat": 36.21498649999999,
                    "lng": 113.1279165
                },
                "viewport": {
                    "northeast": {
                        "lat": 36.21632827989272,
                        "lng": 113.1293037798927
                    },
                    "southwest": {
                        "lat": 36.21362862010728,
                        "lng": 113.1266041201073
                    }
                }
            },
            "icon": "https://maps.gstatic.com/mapfiles/place_api/icons/generic_business-71.png",
            "id": "5829d94c5d6aa64070e1cc94d0593eda2094a095",
            "name": "空气压缩机",
            "place_id": "ChIJvXjItePO2DUR0w5yHLfNhJ0",
            "rating": 0,
            "reference": "ChIJvXjItePO2DUR0w5yHLfNhJ0",
            "types": [
                "point_of_interest",
                "establishment"
            ],
            "user_ratings_total": 0
        },
        {
            "business_status": "OPERATIONAL",
            "formatted_address": "中国山东省潍坊市潍城区健康西街",
            "geometry": {
                "location": {
                    "lat": 36.702953,
                    "lng": 119.091568
                },
                "viewport": {
                    "northeast": {
                        "lat": 36.70412552989273,
                        "lng": 119.0928663298928
                    },
                    "southwest": {
                        "lat": 36.70142587010728,
                        "lng": 119.0901666701073
                    }
                }
            },
            "icon": "https://maps.gstatic.com/mapfiles/place_api/icons/generic_business-71.png",
            "id": "82cda242490f56692edd218470d184ce68c745da",
            "name": "潍坊顺达空压机配件经销处",
            "place_id": "ChIJnavsG4IXlTUR0ptmb_2ZfhI",
            "plus_code": {
                "compound_code": "P33R+5J 潍城区 中国山东省潍坊市",
                "global_code": "8P8XP33R+5J"
            },
            "rating": 0,
            "reference": "ChIJnavsG4IXlTUR0ptmb_2ZfhI",
            "types": [
                "point_of_interest",
                "establishment"
            ],
            "user_ratings_total": 0
        },
        {
            "business_status": "OPERATIONAL",
            "formatted_address": "中国河北省邯郸市武安市桥西路",
            "geometry": {
                "location": {
                    "lat": 36.689114,
                    "lng": 114.1972534
                },
                "viewport": {
                    "northeast": {
                        "lat": 36.69041867989272,
                        "lng": 114.1986029298927
                    },
                    "southwest": {
                        "lat": 36.68771902010728,
                        "lng": 114.1959032701073
                    }
                }
            },
            "icon": "https://maps.gstatic.com/mapfiles/place_api/icons/shopping-71.png",
            "id": "1b3bace0117047e3f6bc24335fac58831340c066",
            "name": "沈阳系列空气压缩机",
            "place_id": "ChIJ11ed4dMr3DURfd4T2xG6vgs",
            "plus_code": {
                "compound_code": "M5QW+JW 武安市 中国河北省邯郸市",
                "global_code": "8P8PM5QW+JW"
            },
            "rating": 0,
            "reference": "ChIJ11ed4dMr3DURfd4T2xG6vgs",
            "types": [
                "point_of_interest",
                "establishment"
            ],
            "user_ratings_total": 0
        },
        {
            "business_status": "OPERATIONAL",
            "formatted_address": "中国山东省淄博市张店区东四路",
            "geometry": {
                "location": {
                    "lat": 36.797046,
                    "lng": 118.083934
                },
                "viewport": {
                    "northeast": {
                        "lat": 36.79839222989272,
                        "lng": 118.0852967798928
                    },
                    "southwest": {
                        "lat": 36.79569257010727,
                        "lng": 118.0825971201073
                    }
                }
            },
            "icon": "https://maps.gstatic.com/mapfiles/place_api/icons/generic_business-71.png",
            "id": "a2f5b9092b9ed02ccb8e31db5d8aaa1142aae87c",
            "name": "螺杆空压机",
            "place_id": "ChIJi1ucuz6N6jURBO_EPlkDlxI",
            "plus_code": {
                "compound_code": "Q3WM+RH 张店区 中国山东省淄博市",
                "global_code": "8P8WQ3WM+RH"
            },
            "rating": 0,
            "reference": "ChIJi1ucuz6N6jURBO_EPlkDlxI",
            "types": [
                "point_of_interest",
                "establishment"
            ],
            "user_ratings_total": 0
        },
        {
            "business_status": "OPERATIONAL",
            "formatted_address": "中国山东省青岛市李沧区重庆中路663-3",
            "geometry": {
                "location": {
                    "lat": 36.187002,
                    "lng": 120.397805
                },
                "viewport": {
                    "northeast": {
                        "lat": 36.18835312989272,
                        "lng": 120.3991670298927
                    },
                    "southwest": {
                        "lat": 36.18565347010728,
                        "lng": 120.3964673701073
                    }
                }
            },
            "icon": "https://maps.gstatic.com/mapfiles/place_api/icons/shopping-71.png",
            "id": "335c640faea0c1431422660fc3cbbe4c60856c1e",
            "name": "空气压缩机",
            "place_id": "ChIJmfio8y4TljURKOfBEgu_fpw",
            "plus_code": {
                "compound_code": "59PX+R4 李沧区 中国山东省青岛市",
                "global_code": "8Q8259PX+R4"
            },
            "rating": 0,
            "reference": "ChIJmfio8y4TljURKOfBEgu_fpw",
            "types": [
                "store",
                "point_of_interest",
                "establishment"
            ],
            "user_ratings_total": 0
        },
        {
            "business_status": "OPERATIONAL",
            "formatted_address": "中国山东省青岛市李沧区九水路62号",
            "geometry": {
                "location": {
                    "lat": 36.157055,
                    "lng": 120.429935
                },
                "viewport": {
                    "northeast": {
                        "lat": 36.15842717989272,
                        "lng": 120.4312729798927
                    },
                    "southwest": {
                        "lat": 36.15572752010728,
                        "lng": 120.4285733201072
                    }
                }
            },
            "icon": "https://maps.gstatic.com/mapfiles/place_api/icons/shopping-71.png",
            "id": "99d3a83b02fbdedfe5439874f6a822a4d462aa1c",
            "name": "空气压缩机",
            "place_id": "ChIJyYPMgWQTljURFdu_1X34wCY",
            "plus_code": {
                "compound_code": "5C4H+RX 李沧区 中国山东省青岛市",
                "global_code": "8Q825C4H+RX"
            },
            "rating": 0,
            "reference": "ChIJyYPMgWQTljURFdu_1X34wCY",
            "types": [
                "store",
                "point_of_interest",
                "establishment"
            ],
            "user_ratings_total": 0
        },
        {
            "business_status": "OPERATIONAL",
            "formatted_address": "中国山东省泰安市泰山区灵山大街",
            "geometry": {
                "location": {
                    "lat": 36.183452,
                    "lng": 117.141133
                },
                "viewport": {
                    "northeast": {
                        "lat": 36.18471562989272,
                        "lng": 117.1424821798927
                    },
                    "southwest": {
                        "lat": 36.18201597010728,
                        "lng": 117.1397825201073
                    }
                }
            },
            "icon": "https://maps.gstatic.com/mapfiles/place_api/icons/generic_business-71.png",
            "id": "4f20a15f0379d2a088fdad0ff177b1f4457e4b16",
            "name": "青岛正阳空气压缩机厂泰安经销处",
            "place_id": "ChIJBwIy1pApwjURSd_s0-U2YYY",
            "plus_code": {
                "compound_code": "54MR+9F 泰山区 中国山东省泰安市",
                "global_code": "8P8V54MR+9F"
            },
            "rating": 0,
            "reference": "ChIJBwIy1pApwjURSd_s0-U2YYY",
            "types": [
                "point_of_interest",
                "establishment"
            ],
            "user_ratings_total": 0
        },
        {
            "business_status": "OPERATIONAL",
            "formatted_address": "中国山东省潍坊市潍城区春鸢路",
            "geometry": {
                "location": {
                    "lat": 36.699239,
                    "lng": 119.090502
                },
                "viewport": {
                    "northeast": {
                        "lat": 36.70062532989272,
                        "lng": 119.0917207298927
                    },
                    "southwest": {
                        "lat": 36.69792567010727,
                        "lng": 119.0890210701073
                    }
                }
            },
            "icon": "https://maps.gstatic.com/mapfiles/place_api/icons/shopping-71.png",
            "id": "fcddb03610fa7774c4b4a105b6504439d6e663e2",
            "name": "耐力滑片式空气压缩机",
            "place_id": "ChIJ-4nwxIIXlTURqdsDJ_e1hqw",
            "plus_code": {
                "compound_code": "M3XR+M6 潍城区 中国山东省潍坊市",
                "global_code": "8P8XM3XR+M6"
            },
            "rating": 4,
            "reference": "ChIJ-4nwxIIXlTURqdsDJ_e1hqw",
            "types": [
                "point_of_interest",
                "establishment"
            ],
            "user_ratings_total": 1
        },
        {
            "business_status": "OPERATIONAL",
            "formatted_address": "中国河北省石家庄市长安区建设北大街163-18",
            "geometry": {
                "location": {
                    "lat": 38.057069,
                    "lng": 114.512197
                },
                "viewport": {
                    "northeast": {
                        "lat": 38.05850777989272,
                        "lng": 114.5135705298927
                    },
                    "southwest": {
                        "lat": 38.05580812010727,
                        "lng": 114.5108708701073
                    }
                }
            },
            "icon": "https://maps.gstatic.com/mapfiles/place_api/icons/generic_business-71.png",
            "id": "532f2b112fa782815823be04c0ec59dd0d9e08ce",
            "name": "石家庄北方压缩机有限公司",
            "place_id": "ChIJo0-rWQ_e5jURfO7l67MEM4Y",
            "plus_code": {
                "compound_code": "3G46+RV 长安区 中国河北省石家庄市",
                "global_code": "8PCP3G46+RV"
            },
            "rating": 0,
            "reference": "ChIJo0-rWQ_e5jURfO7l67MEM4Y",
            "types": [
                "point_of_interest",
                "establishment"
            ],
            "user_ratings_total": 0
        },
        {
            "business_status": "OPERATIONAL",
            "formatted_address": "中国河北省石家庄市长安区建设北大街151-15",
            "geometry": {
                "location": {
                    "lat": 38.055746,
                    "lng": 114.512233
                },
                "viewport": {
                    "northeast": {
                        "lat": 38.05709212989272,
                        "lng": 114.5136419298927
                    },
                    "southwest": {
                        "lat": 38.05439247010727,
                        "lng": 114.5109422701073
                    }
                }
            },
            "icon": "https://maps.gstatic.com/mapfiles/place_api/icons/generic_business-71.png",
            "id": "d66f3272cd60fd421e003c83cf311d47da7195ac",
            "name": "石家庄康普斯压缩机",
            "place_id": "ChIJ633ahg_e5jURf9kCNc4y6T4",
            "plus_code": {
                "compound_code": "3G46+7V 长安区 中国河北省石家庄市",
                "global_code": "8PCP3G46+7V"
            },
            "rating": 0,
            "reference": "ChIJ633ahg_e5jURf9kCNc4y6T4",
            "types": [
                "point_of_interest",
                "establishment"
            ],
            "user_ratings_total": 0
        },
        {
            "business_status": "OPERATIONAL",
            "formatted_address": "中国河北省沧州市吴桥县黄河路",
            "geometry": {
                "location": {
                    "lat": 37.635665,
                    "lng": 116.428171
                },
                "viewport": {
                    "northeast": {
                        "lat": 37.63678887989272,
                        "lng": 116.4294846798928
                    },
                    "southwest": {
                        "lat": 37.63408922010728,
                        "lng": 116.4267850201073
                    }
                }
            },
            "icon": "https://maps.gstatic.com/mapfiles/place_api/icons/generic_business-71.png",
            "id": "69236a22934e1236a35a2bf58790df563c9f7577",
            "name": "吴桥压缩机有限责任公司",
            "place_id": "ChIJb6GDKAwC6TURtAj5qCyd4z0",
            "plus_code": {
                "compound_code": "JCPH+77 吴桥县 中国河北省沧州市",
                "global_code": "8P9RJCPH+77"
            },
            "rating": 0,
            "reference": "ChIJb6GDKAwC6TURtAj5qCyd4z0",
            "types": [
                "point_of_interest",
                "establishment"
            ],
            "user_ratings_total": 0
        },
        {
            "business_status": "OPERATIONAL",
            "formatted_address": "中国山东省烟台市芝罘区前进街",
            "geometry": {
                "location": {
                    "lat": 37.548904,
                    "lng": 121.369447
                },
                "viewport": {
                    "northeast": {
                        "lat": 37.55027027989273,
                        "lng": 121.3707495798927
                    },
                    "southwest": {
                        "lat": 37.54757062010729,
                        "lng": 121.3680499201073
                    }
                }
            },
            "icon": "https://maps.gstatic.com/mapfiles/place_api/icons/generic_business-71.png",
            "id": "d7d648560aa9f53e20757760910af78c7db83994",
            "name": "烟潍空气压缩机有限公司",
            "place_id": "ChIJwVF08fZjkDURP_xSRp96jxU",
            "plus_code": {
                "compound_code": "G9X9+HQ 芝罘区 中国山东省烟台市",
                "global_code": "8Q93G9X9+HQ"
            },
            "rating": 0,
            "reference": "ChIJwVF08fZjkDURP_xSRp96jxU",
            "types": [
                "point_of_interest",
                "establishment"
            ],
            "user_ratings_total": 0
        },
        {
            "business_status": "OPERATIONAL",
            "formatted_address": "中国辽宁省大连市甘井子区华北路144号",
            "geometry": {
                "location": {
                    "lat": 38.95350699999999,
                    "lng": 121.565535
                },
                "viewport": {
                    "northeast": {
                        "lat": 38.95483567989272,
                        "lng": 121.5669700298927
                    },
                    "southwest": {
                        "lat": 38.95213602010728,
                        "lng": 121.5642703701073
                    }
                }
            },
            "icon": "https://maps.gstatic.com/mapfiles/place_api/icons/generic_business-71.png",
            "id": "606e29bb642a08db5e8dc5104c79857af143fad7",
            "name": "大连空气压缩机厂服务部",
            "place_id": "ChIJz6G8gTxejzUR64DsKIFV6EM",
            "plus_code": {
                "compound_code": "XH38+C6 甘井子区 中国辽宁省大连市",
                "global_code": "8QC3XH38+C6"
            },
            "rating": 0,
            "reference": "ChIJz6G8gTxejzUR64DsKIFV6EM",
            "types": [
                "point_of_interest",
                "establishment"
            ],
            "user_ratings_total": 0
        },
        {
            "business_status": "OPERATIONAL",
            "formatted_address": "中国辽宁省大连市普兰店区王石线",
            "geometry": {
                "location": {
                    "lat": 39.6915419,
                    "lng": 122.0282114
                },
                "viewport": {
                    "northeast": {
                        "lat": 39.69285507989272,
                        "lng": 122.0295269798927
                    },
                    "southwest": {
                        "lat": 39.69015542010727,
                        "lng": 122.0268273201073
                    }
                }
            },
            "icon": "https://maps.gstatic.com/mapfiles/place_api/icons/generic_business-71.png",
            "id": "1d23b0b9193ea5bd9a6071fa25e370496dde3127",
            "name": "大连空气压缩机厂",
            "place_id": "ChIJY28FONBKhjUR3CdxkB_aG-k",
            "plus_code": {
                "compound_code": "M2RH+J7 瓦窝镇 中国辽宁省大连市瓦房店市",
                "global_code": "8QF4M2RH+J7"
            },
            "rating": 0,
            "reference": "ChIJY28FONBKhjUR3CdxkB_aG-k",
            "types": [
                "point_of_interest",
                "establishment"
            ],
            "user_ratings_total": 0
        },
        {
            "business_status": "OPERATIONAL",
            "formatted_address": "中国山东省潍坊市奎文区鸢飞路823号",
            "geometry": {
                "location": {
                    "lat": 36.720762,
                    "lng": 119.127906
                },
                "viewport": {
                    "northeast": {
                        "lat": 36.72210722989272,
                        "lng": 119.1291806298928
                    },
                    "southwest": {
                        "lat": 36.71940757010728,
                        "lng": 119.1264809701073
                    }
                }
            },
            "icon": "https://maps.gstatic.com/mapfiles/place_api/icons/shopping-71.png",
            "id": "d9b75599934c5267e73ea32dc479ab84db7dce3a",
            "name": "潍坊蓝星压缩机有限公司",
            "place_id": "ChIJM3K5g40ZlTURM-eq3DlZhNQ",
            "plus_code": {
                "compound_code": "P4CH+85 奎文区 中国山东省潍坊市",
                "global_code": "8P8XP4CH+85"
            },
            "rating": 0,
            "reference": "ChIJM3K5g40ZlTURM-eq3DlZhNQ",
            "types": [
                "point_of_interest",
                "establishment"
            ],
            "user_ratings_total": 0
        },
        {
            "business_status": "OPERATIONAL",
            "formatted_address": "中国辽宁省沈阳市铁西区小五路",
            "geometry": {
                "location": {
                    "lat": 41.796858,
                    "lng": 123.3617429
                },
                "viewport": {
                    "northeast": {
                        "lat": 41.79824512989272,
                        "lng": 123.3630058798928
                    },
                    "southwest": {
                        "lat": 41.79554547010728,
                        "lng": 123.3603062201073
                    }
                }
            },
            "icon": "https://maps.gstatic.com/mapfiles/place_api/icons/generic_business-71.png",
            "id": "ee476ae8098e64694284e3c1dc8f2be39ba93d44",
            "name": "空气压缩机配件经销部",
            "place_id": "ChIJ0QIXJg99JV4Rju97M59pr38",
            "plus_code": {
                "compound_code": "Q9W6+PM 铁西区 中国辽宁省沈阳市",
                "global_code": "8QH5Q9W6+PM"
            },
            "rating": 0,
            "reference": "ChIJ0QIXJg99JV4Rju97M59pr38",
            "types": [
                "point_of_interest",
                "establishment"
            ],
            "user_ratings_total": 0
        },
        {
            "business_status": "OPERATIONAL",
            "formatted_address": "中国山东省烟台市芝罘区白石路白石路附105-14号",
            "geometry": {
                "location": {
                    "lat": 37.541823,
                    "lng": 121.360589
                },
                "viewport": {
                    "northeast": {
                        "lat": 37.54294672989271,
                        "lng": 121.3619608798927
                    },
                    "southwest": {
                        "lat": 37.54024707010727,
                        "lng": 121.3592612201073
                    }
                }
            },
            "icon": "https://maps.gstatic.com/mapfiles/place_api/icons/shopping-71.png",
            "id": "4fe967e16c73e38259009532678f2b3e18713177",
            "name": "烟潍空气压缩机有限公司",
            "place_id": "ChIJ-RnNeuRjkDURMYMinQwaz9U",
            "plus_code": {
                "compound_code": "G9R6+P6 芝罘区 中国山东省烟台市",
                "global_code": "8Q93G9R6+P6"
            },
            "rating": 0,
            "reference": "ChIJ-RnNeuRjkDURMYMinQwaz9U",
            "types": [
                "store",
                "point_of_interest",
                "establishment"
            ],
            "user_ratings_total": 0
        }
    ],
    "status": "OK"
}